City_ID,City,Lat,Lng,Max Temp,Humidity,Cloudiness,Wind Speed,Country,Date
0,anadyr,64.75,177.4833,1.9,85,75,2.24,RU,1710351943
1,bethel,41.3712,-73.414,68.36,39,0,6.91,US,1710351944
2,puerto natales,-51.7236,-72.4875,52.25,58,75,21.85,CL,1710351944
3,igrim,63.1906,64.4162,6.37,92,99,4.85,RU,1710351944
4,hamilton,39.1834,-84.5333,72.61,45,0,11.5,US,1710351835
5,makokou,0.5738,12.8642,70.29,96,94,2.95,GA,1710351945
6,iqaluit,63.7506,-68.5145,-4.27,71,75,2.3,CA,1710351945
7,klyuchi,52.2667,79.1667,17.22,89,88,9.06,RU,1710351945
8,yingkou,40.6648,122.2283,35.91,61,0,5.84,CN,1710351946
9,pangody,65.85,74.4859,-5.06,99,100,8.05,RU,1710351946
10,blackmans bay,-43.0167,147.3167,53.73,75,37,1.01,AU,1710351946
11,waitangi,-43.9535,-176.5597,54.82,93,93,5.99,NZ,1710351947
12,adamstown,-25.066,-130.1015,77.25,82,92,13.8,PN,1710351947
13,xinyuan,37.3,99.0,25.0,33,86,2.13,CN,1710351947
14,tiksi,71.6872,128.8694,-20.74,99,99,6.04,RU,1710351948
15,chidawa,28.2401,75.6456,68.13,34,58,3.89,IN,1710351948
16,badger,64.8,-147.5333,-2.87,79,40,3.44,US,1710351891
17,mugia,43.1041,-9.2179,60.91,84,0,13.33,ES,1710351949
18,saint-pierre,-21.3393,55.4781,78.48,78,20,10.36,RE,1710351949
19,jayapura,-2.5333,140.7,76.39,90,100,4.63,ID,1710351950
20,longyearbyen,78.2186,15.6401,8.44,78,75,17.27,SJ,1710351950
21,nemuro,43.3236,145.575,26.62,65,31,21.32,JP,1710351950
22,aginskoye,51.1,114.53,24.1,78,93,4.5,RU,1710351950
23,vorgashor,67.5833,63.95,5.27,89,93,16.46,RU,1710351951
24,lebu,-37.6167,-73.65,63.07,60,41,8.3,CL,1710351951
25,sosnovo-ozerskoye,52.5249,111.5418,14.63,95,99,5.23,RU,1710351951
26,dan sadau,11.2962,6.4952,97.2,21,96,6.29,NG,1710351952
27,kidal,18.4411,1.4078,93.25,8,52,10.27,ML,1710351952
28,afaahiti,-17.75,-149.2833,82.27,83,100,12.77,PF,1710351952
29,enewetak,11.3474,162.3373,79.77,76,100,22.68,MH,1710351953
30,port elizabeth,-33.918,25.5701,70.11,85,0,12.66,ZA,1710351953
31,castanos,26.7833,-101.4167,86.34,16,1,7.49,MX,1710351953
32,san patricio,28.017,-97.5169,84.16,54,69,14.61,US,1710351954
33,jamestown,42.097,-79.2353,67.01,44,0,16.11,US,1710351692
34,grytviken,-54.2811,-36.5092,42.91,73,100,7.31,GS,1710351954
35,port-aux-francais,-49.35,70.2167,42.4,72,96,20.29,TF,1710351954
36,albany,42.6001,-73.9662,64.09,45,62,1.99,US,1710351888
37,asosa,10.0667,34.5333,80.71,23,80,4.09,ET,1710351955
38,yellowknife,62.456,-114.3525,17.42,90,75,16.11,CA,1710351955
39,buka,40.8108,69.1986,43.41,62,67,3.76,UZ,1710351957
40,al ghayzah,16.2079,52.176,78.71,77,64,6.49,YE,1710351957
41,papao,-17.75,-149.55,83.88,77,100,10.74,PF,1710351957
42,jau,-22.2964,-48.5578,91.92,28,90,3.74,BR,1710351958
43,gornozavodsk,58.3758,58.3211,22.15,95,100,9.69,RU,1710351958
44,chabahar,25.2919,60.643,72.86,74,0,9.01,IR,1710351958
45,hermanus,-34.4187,19.2345,63.81,76,7,6.33,ZA,1710351958
46,roma,43.2128,-75.4557,66.09,46,40,5.75,US,1710351959
47,pathein,16.7833,94.7333,73.47,88,3,10.67,MM,1710351959
48,petropavlovsk-kamchatsky,53.0452,158.6483,23.59,75,75,6.71,RU,1710351959
49,cartagena,10.3997,-75.5144,87.42,66,20,10.36,CO,1710351870
50,kodiak,57.79,-152.4072,24.31,68,100,10.36,US,1710351960
51,cabo san lucas,22.8909,-109.9124,79.9,60,0,4.0,MX,1710351960
52,nangis,48.5554,3.0131,54.59,86,100,6.53,FR,1710351961
53,tolanaro,-25.0319,46.9987,80.67,83,20,25.32,MG,1710351961
54,west island,-12.1568,96.8225,78.78,78,100,9.22,CC,1710351961
55,edinburgh of the seven seas,-37.0676,-12.3116,64.96,96,97,20.18,SH,1710351961
56,novouzensk,50.4592,48.1431,19.72,98,10,0.81,RU,1710351962
57,murygino,58.7383,49.4582,27.36,96,100,5.95,RU,1710351963
58,coari,-4.085,-63.1414,90.9,61,57,5.35,BR,1710351964
59,margaret river,-33.95,115.0667,62.06,84,62,10.47,AU,1710351964
60,utrik,11.2278,169.8474,79.09,80,100,26.49,MH,1710351965
61,papatowai,-46.5619,169.4708,44.65,85,98,7.4,NZ,1710351965
62,isafjordur,66.0755,-23.124,33.84,93,100,19.57,IS,1710351965
63,ushuaia,-54.8,-68.3,56.82,38,75,12.66,AR,1710351893
64,puerto ayora,-0.7393,-90.3518,85.96,91,88,8.99,EC,1710351966
65,buala,-8.145,159.5921,80.29,85,100,3.78,SB,1710351966
66,wailua homesteads,22.0669,-159.378,70.23,92,20,4.61,US,1710351967
67,huarmey,-10.0681,-78.1522,78.87,75,43,9.48,PE,1710351967
68,sinop,41.7711,34.8709,45.37,82,100,4.23,TR,1710351968
69,lichinga,-13.3128,35.2406,71.69,78,75,5.99,MZ,1710351968
70,la passe,45.5549,-0.8967,64.63,80,13,7.52,FR,1710351968
71,peace river,56.2501,-117.286,35.91,86,40,6.91,CA,1710351841
72,inirida,3.8653,-67.9239,91.76,54,80,1.57,CO,1710351969
73,sovetskiy,61.3614,63.5842,21.88,92,98,13.0,RU,1710351970
74,theniet el had,35.8711,2.0281,55.11,53,21,3.27,DZ,1710351970
75,luderitz,-26.6481,15.1594,70.34,51,13,25.12,NA,1710351970
76,ribeira grande,38.5167,-28.7,65.77,82,20,17.27,PT,1710351970
77,whitehorse,60.7161,-135.0538,22.1,73,40,13.8,CA,1710351905
78,minas de marcona,-15.2119,-75.1103,74.48,62,60,15.5,PE,1710351972
79,bikenibeu village,1.3673,173.1241,82.36,89,75,11.5,KI,1710351972
80,remire-montjoly,4.9167,-52.2667,89.64,62,75,14.97,GF,1710351973
81,mikashevichy,52.2173,27.476,38.64,80,100,4.65,BY,1710351973
82,new norfolk,-42.7826,147.0587,54.9,97,18,2.98,AU,1710351974
83,avarua,-21.2078,-159.775,82.45,89,75,17.27,CK,1710351974
84,malakal,9.5334,31.6605,97.48,14,19,1.45,SS,1710351975
85,tazovsky,67.4667,78.7,-17.12,98,86,7.14,RU,1710351975
86,akureyri,65.6835,-18.0878,35.53,87,100,14.97,IS,1710351975
87,invercargill,-46.4,168.35,47.01,87,97,5.99,NZ,1710351976
88,ilulissat,69.2167,-51.1,14.02,92,75,0.0,GL,1710351976
89,thal,35.4791,72.2439,36.45,97,100,3.29,PK,1710351976
90,kamina,-8.7386,24.9906,68.92,92,48,2.13,CD,1710351976
91,lihue,21.9789,-159.3672,70.84,93,20,4.61,US,1710351977
92,klaksvik,62.2266,-6.589,41.92,94,93,9.28,FO,1710351977
93,salahonda,2.1019,-78.7217,81.73,83,31,13.11,CO,1710351977
94,arteche,12.2645,125.4048,76.95,82,76,8.43,PH,1710351978
95,manuguru,17.981,80.7547,84.0,55,90,8.93,IN,1710351978
96,kununurra,-15.7667,128.7333,82.38,83,75,1.14,AU,1710351978
97,sabang,5.8933,95.3214,82.99,73,32,9.4,ID,1710351979
98,holualoa,19.6228,-155.9522,72.77,78,100,4.61,US,1710351979
99,udachny,66.4167,112.4,-30.66,100,58,3.69,RU,1710351980
100,bredasdorp,-34.5322,20.0403,64.96,72,30,7.47,ZA,1710351980
101,saipan,15.1355,145.701,77.7,83,20,11.5,MP,1710351980
102,port mathurin,-19.6833,63.4167,79.95,82,68,23.0,MU,1710351981
103,bayganin,48.6947,55.8742,25.16,83,100,8.05,KZ,1710351981
104,polygyros,40.3744,23.4383,54.95,65,32,5.95,GR,1710351981
105,saldanha,-33.0117,17.9442,68.05,77,0,18.86,ZA,1710351982
106,talnakh,69.4865,88.3972,4.21,94,100,17.87,RU,1710351982
107,sao gabriel da cachoeira,-0.1303,-67.0892,87.6,79,100,3.44,BR,1710351982
108,mount gambier,-37.8333,140.7667,56.75,74,49,11.07,AU,1710351733
109,olonkinbyen,70.9221,-8.7187,26.08,69,100,15.75,SJ,1710351983
110,st. john's,47.5649,-52.7093,39.78,90,75,6.91,CA,1710351984
111,arkhangel'sk,64.5401,40.5433,24.91,85,100,6.71,RU,1710351939
112,butterworth,5.3991,100.3638,84.06,83,20,2.3,MY,1710351984
113,nova vicosa,-17.8919,-39.3719,82.76,68,42,9.01,BR,1710351985
114,borba,-4.3878,-59.5939,88.79,69,85,3.04,BR,1710351985
115,ust-nera,64.5667,143.2,-18.67,97,100,2.42,RU,1710351986
116,severo-yeniseyskiy,60.3725,93.0408,-0.89,99,98,3.78,RU,1710351986
117,fale old settlement,-9.3852,-171.2468,84.76,73,52,14.92,TK,1710351986
118,lazaro cardenas,17.9583,-102.2,84.09,52,44,8.97,MX,1710351987
119,port alfred,-33.5906,26.891,64.18,100,93,1.01,ZA,1710351987
120,ravar,31.2656,56.8055,55.4,43,0,3.67,IR,1710351987
121,walvis bay,-22.9575,14.5053,72.55,64,29,3.44,NA,1710351988
122,fortuna,40.5982,-124.1573,50.99,80,0,4.61,US,1710351988
123,freetown,8.484,-13.2299,81.75,65,16,10.36,SL,1710351989
124,inhambane,-23.865,35.3833,74.95,79,60,5.64,MZ,1710351989
125,puerto deseado,-47.7503,-65.8938,67.62,30,71,25.81,AR,1710351989
126,weno,7.4515,151.8468,81.52,79,100,22.57,FM,1710351990
127,dudinka,69.4058,86.1778,4.62,94,100,32.01,RU,1710351990
128,hawaiian paradise park,19.5933,-154.9731,72.03,98,0,3.44,US,1710351990
129,talcahuano,-36.7167,-73.1167,67.68,40,0,10.36,CL,1710351991
130,tucupita,9.0622,-62.051,91.53,47,70,8.21,VE,1710351991
131,porto seguro,-16.4497,-39.0647,81.12,94,100,2.3,BR,1710351992
132,bilibino,68.0546,166.4372,-11.78,93,97,3.69,RU,1710351992
133,east london,-33.0153,27.9116,65.34,100,100,9.22,ZA,1710351907
134,punta arenas,-53.15,-70.9167,53.71,50,75,25.32,CL,1710351993
135,nelson,-41.2833,173.2833,56.28,67,76,1.99,NZ,1710351993
136,freguesia do ribeirao da ilha,-27.7177,-48.5627,87.66,62,0,12.66,BR,1710351738
137,namikupa,-10.8333,39.6,73.54,97,73,3.33,TZ,1710351994
138,quellon,-43.1167,-73.6167,58.08,59,76,13.62,CL,1710351994
139,ketchikan,55.3422,-131.6461,39.67,87,100,11.5,US,1710351994
140,pacific grove,36.6177,-121.9166,57.88,73,0,4.0,US,1710351994
141,colonia,50.9333,6.95,55.96,81,75,8.05,DE,1710351995
142,fisterra,42.9049,-9.2629,60.75,87,1,12.93,ES,1710351995
143,imbituba,-28.24,-48.6703,80.85,65,1,14.07,BR,1710351995
144,kirakira,-10.4544,161.9205,80.04,86,100,6.44,SB,1710351996
145,al kharijah,25.4514,30.5464,73.92,12,100,10.76,EG,1710351996
146,prince rupert,54.3161,-130.3201,38.89,93,100,27.63,CA,1710351996
147,georgetown,5.4112,100.3354,83.95,82,20,2.3,MY,1710351997
148,tondano,1.3038,124.9112,69.89,93,93,2.35,ID,1710351997
149,carauari,-4.8828,-66.8958,88.75,69,45,3.04,BR,1710351997
150,college,64.8569,-147.8028,-2.2,78,40,3.44,US,1710351998
151,vilyuchinsk,52.9306,158.4028,25.07,90,100,26.46,RU,1710351998
152,north haven,41.3909,-72.8595,67.46,38,0,12.66,US,1710351995
153,sungai raya,0.7,108.9,75.92,85,87,7.4,ID,1710351998
154,ilha de mocambique,-15.0342,40.7358,83.77,77,41,12.41,MZ,1710351999
155,sitka,57.0531,-135.33,39.09,70,100,17.27,US,1710351999
156,praia da vitoria,38.7333,-27.0667,70.05,60,20,12.28,PT,1710351999
157,soe,-9.8607,124.284,66.7,94,100,6.46,ID,1710352000
158,suva,-18.1416,178.4415,76.48,100,75,3.44,FJ,1710352000
159,velikiy ustyug,60.7644,46.3106,28.4,88,100,10.0,RU,1710352000
160,grand falls-windsor,48.9332,-55.6649,35.51,93,100,10.0,CA,1710352001
161,bonadelle ranchos-madera ranchos,36.9847,-119.8746,62.08,74,85,10.63,US,1710352001
162,crane,31.3974,-102.3501,76.6,12,10,23.09,US,1710352001
163,xining,36.6167,101.7667,35.47,42,60,1.25,CN,1710352002
164,kaohsiung,22.6163,120.3133,69.04,73,40,4.61,TW,1710352002
165,happy valley-goose bay,53.3168,-60.3315,37.71,70,100,13.8,CA,1710352002
166,el calafate,-50.3408,-72.2768,48.6,64,36,16.84,AR,1710351880
167,burang,30.25,81.1667,14.54,98,99,6.53,CN,1710352003
168,malpe,13.35,74.7167,83.5,76,6,5.55,IN,1710352003
169,carnarvon,-24.8667,113.6333,80.44,74,37,10.25,AU,1710352003
170,keflavik,64.0049,-22.5624,42.71,75,0,14.97,IS,1710352004
171,kilindoni,-7.9139,39.6668,84.78,73,25,9.46,TZ,1710352004
172,port sudan,19.6175,37.2164,81.16,78,48,4.07,SD,1710352004
173,wellington,-41.2866,174.7756,58.06,86,100,6.91,NZ,1710351767
174,saint croix,17.7397,-64.7388,84.65,68,20,17.27,VI,1710352005
175,northam,51.0333,-4.2167,54.39,88,100,16.55,GB,1710352005
176,tailai,46.3833,123.4,32.58,61,54,7.63,CN,1710352006
177,atafu village,-8.5421,-172.5159,84.69,73,23,14.83,TK,1710352006
178,vila franca do campo,37.7167,-25.4333,64.89,99,66,13.09,PT,1710352006
179,kone,-21.0595,164.8658,77.67,92,98,4.81,NC,1710352006
180,kampene,-3.6,26.6667,71.71,96,61,1.9,CD,1710352007
181,ishim,56.1128,69.4902,7.03,94,57,5.99,RU,1710352007
182,araguaina,-7.1911,-48.2072,88.03,65,91,2.57,BR,1710351780
183,magadan,59.5667,150.8,7.47,98,95,5.35,RU,1710352008
184,isangel,-19.55,169.2667,79.32,92,99,8.9,VU,1710352008
185,sept-iles,50.2001,-66.3821,41.52,52,75,5.75,CA,1710352008
186,uturoa,-16.7333,-151.4333,84.02,79,100,12.41,PF,1710352009
187,sestri levante,44.2732,9.3968,58.17,87,15,1.01,IT,1710352009
188,aykhal,66.0,111.5,-26.93,100,25,4.41,RU,1710352009
189,kabinda,-6.1333,24.4833,73.54,87,7,2.8,CD,1710352010
190,amga,60.8953,131.9608,-11.34,100,99,1.28,RU,1710352010
191,thunder bay,48.4001,-89.3168,48.18,53,75,8.05,CA,1710351735
192,hasaki,35.7333,140.8333,37.8,51,96,2.04,JP,1710352011
193,timoteo,-19.5825,-42.6444,90.46,71,87,3.76,BR,1710352011
194,namibe,-15.1961,12.1522,76.82,73,24,13.82,AO,1710352011
195,moranbah,-22.0016,148.0466,73.31,67,65,16.82,AU,1710352012
196,phalaborwa,-23.943,31.1411,87.08,59,47,6.26,ZA,1710352012
197,hithadhoo,-0.6,73.0833,81.93,70,5,6.08,MV,1710352012
198,mount pearl,47.5166,-52.7813,38.95,90,75,6.91,CA,1710352010
199,alofi,-19.0595,-169.9187,75.09,94,20,2.3,NU,1710352013
200,fraserburgh,57.6874,-2.0184,48.11,62,55,19.77,GB,1710352013
201,terrace,54.5163,-128.6035,39.22,81,100,13.8,CA,1710352013
202,kavieng,-2.5744,150.7967,82.0,81,100,9.35,PG,1710352014
203,sao joao da barra,-21.6403,-41.0511,86.09,75,70,8.08,BR,1710351746
204,alaghsas,17.0187,8.0168,102.09,6,0,6.91,NE,1710352014
205,ariquemes,-9.9133,-63.0408,95.04,48,74,1.14,BR,1710351851
206,mo i rana,66.3128,14.1428,30.67,59,0,16.11,NO,1710352015
207,gadzhiyevo,69.2551,33.3362,10.33,93,99,6.96,RU,1710352015
208,howrah,22.5892,88.3103,80.6,83,40,6.91,IN,1710352015
209,forster,-32.1667,152.5167,60.39,100,68,7.0,AU,1710352016
210,seryshevo,51.0933,128.3786,11.35,99,97,2.04,RU,1710352016
211,bamboo flat,11.7,92.7167,78.89,83,20,2.3,IN,1710352016
212,mejit,10.2753,170.8646,79.21,81,100,25.7,MH,1710352016
213,calvinia,-31.4707,19.776,63.97,37,5,11.61,ZA,1710352017
214,balikpapan,-1.2675,116.8289,79.79,83,20,5.75,ID,1710352017
215,berdsk,54.7551,83.0967,15.4,91,99,6.93,RU,1710352017
216,tura,25.5198,90.2201,69.96,32,1,3.58,IN,1710352018
217,mountain home,43.133,-115.6912,41.43,57,0,27.63,US,1710352017
218,kavaratti,10.5669,72.642,82.45,73,7,11.59,IN,1710352018
219,chonchi,-42.6128,-73.8092,56.41,58,73,11.27,CL,1710352018
220,thompson,55.7435,-97.8558,14.16,85,100,8.05,CA,1710352019
221,hell-ville,-13.4,48.2667,84.29,70,5,3.76,MG,1710352019
222,makushino,55.2103,67.2442,4.35,96,71,8.21,RU,1710352020
223,yen vinh,18.6667,105.6667,70.79,97,34,4.09,VN,1710352021
224,ghat,24.9647,10.1728,77.61,13,66,7.2,LY,1710352021
225,gamba,-2.65,10.0,81.01,89,83,6.8,GA,1710352021
226,maralal,1.0968,36.698,69.76,51,100,16.28,KE,1710352022
227,usogorsk,63.4106,48.6872,5.05,96,100,1.63,RU,1710352022
228,levuka,50.1834,-105.4011,31.71,100,100,12.66,CA,1710352022
229,kita,13.0349,-9.4895,103.84,9,22,6.13,ML,1710352023
230,cockburn town,21.4612,-71.1419,76.98,79,86,16.69,TC,1710352023
231,prince albert,53.2001,-105.7677,24.75,68,40,4.61,CA,1710351783
232,malindi,-3.2175,40.1191,86.16,74,20,9.22,KE,1710352024
233,mocajuba,-2.5842,-49.5072,85.62,79,85,3.83,BR,1710352024
234,mudgee,-32.5943,149.5871,55.62,81,72,3.18,AU,1710351911
235,g'uzor,38.6214,66.2522,44.64,54,0,3.87,UZ,1710352025
236,north bend,43.4065,-124.2243,49.24,93,100,6.91,US,1710352025
237,visby,57.6409,18.296,38.03,93,100,6.91,SE,1710352025
238,acarau,-2.8856,-40.12,85.98,72,100,11.88,BR,1710352025
239,zouerate,22.7187,-12.4521,83.89,13,0,13.11,MR,1710352026
240,newman,37.3138,-121.0208,55.24,69,95,17.0,US,1710352026
241,jieshi,22.8134,115.8257,63.16,76,87,15.37,CN,1710352026
242,port blair,11.6667,92.75,78.84,83,20,2.3,IN,1710352027
243,lushun,38.8,121.2667,37.62,69,0,5.03,CN,1710352027
244,san antonio de pale,-1.4014,5.6325,84.47,78,84,8.86,GQ,1710352028
245,kailua-kona,19.6406,-155.9956,76.5,79,100,4.61,US,1710351838
246,magangue,9.242,-74.7547,98.87,37,76,2.77,CO,1710352029
247,wau,7.7029,27.9953,92.82,24,53,4.05,SS,1710352029
248,caluula,11.9661,50.7569,80.11,77,8,15.77,SO,1710352029
249,kitami,43.8031,143.8908,21.67,76,12,5.12,JP,1710351785
250,marquette,46.5333,-87.6335,56.25,56,84,5.46,US,1710352030
251,ulladulla,-35.35,150.4667,68.43,85,70,3.69,AU,1710352030
252,bubaque,11.2833,-15.8333,78.53,72,11,21.56,GW,1710352030
253,miyaly,48.8844,53.7836,26.28,89,98,5.08,KZ,1710352031
254,flying fish cove,-10.4217,105.6791,76.68,100,100,8.05,CX,1710352031
255,touros,-5.1989,-35.4608,87.62,63,86,8.77,BR,1710352032
256,ghanzi,-21.5667,21.7833,84.74,28,66,9.93,BW,1710352032
257,mastung,29.7994,66.845,41.99,58,0,6.17,PK,1710352033
258,columbus,39.9612,-82.9988,71.64,42,0,13.8,US,1710351734
259,sittwe,20.15,92.9,74.64,92,0,5.84,MM,1710352033
260,cidreira,-30.1811,-50.2056,79.66,73,19,11.97,BR,1710352034
261,lichuan,30.3,108.85,44.37,94,99,0.2,CN,1710352035
262,suez,29.9737,32.5263,65.82,53,0,14.36,EG,1710352035
263,zaozersk,69.4005,32.4476,8.71,92,99,3.29,RU,1710352037
264,kwang binh,17.4833,106.6,72.79,96,79,7.7,VN,1710352037
265,labrador city,52.9463,-66.9114,30.11,69,75,6.91,CA,1710352038
266,aasiaat,68.7098,-52.8699,6.19,93,66,3.09,GL,1710352038
267,karukh,34.4811,62.5863,40.84,58,0,3.51,AF,1710352038
268,murun-kuren,49.6342,100.1625,26.35,69,98,3.18,MN,1710352039
269,tazacorte,28.629,-17.9293,68.97,94,75,4.61,ES,1710352039
270,nishinoomote,30.7333,131.0,58.57,61,100,20.13,JP,1710352040
271,corinto,37.9407,22.9573,56.89,77,31,10.51,GR,1710352040
272,nar'yan-mar,67.6713,53.087,12.11,86,64,17.0,RU,1710352040
273,castro,-24.7911,-50.0119,84.34,34,8,3.83,BR,1710352041
274,susuman,62.7833,148.1667,-26.01,100,97,1.01,RU,1710352041
275,pisco,-13.7,-76.2167,79.02,61,0,6.91,PE,1710352041
276,merizo village,13.2658,144.6691,78.53,89,95,17.05,GU,1710352041
277,sinabang,2.4803,96.3801,80.64,78,33,4.12,ID,1710352042
278,san luis de la loma,17.2706,-100.8939,87.51,49,5,10.51,MX,1710352043
279,porto novo,6.4965,2.6036,87.62,78,91,9.33,BJ,1710352043
280,suciu de sus,47.4333,24.0333,42.17,92,100,1.9,RO,1710352044
281,ridder,50.355,83.5133,13.32,96,82,5.99,KZ,1710352044
282,kourou,5.1552,-52.6478,89.65,63,41,8.75,GF,1710352044
283,anatuya,-28.4606,-62.8347,107.87,26,68,16.55,AR,1710352045
284,tubarjal,30.4999,38.216,72.0,11,0,5.48,SA,1710352045
285,huanren,41.2647,125.3667,26.71,83,1,1.92,CN,1710352045
286,qaqortoq,60.7167,-46.0333,25.18,77,100,4.09,GL,1710352046
287,onega,63.9061,38.1404,25.54,97,100,4.47,RU,1710352046
288,taft,31.7471,54.2088,57.15,41,0,4.61,IR,1710352046
289,khapa,21.4333,78.9667,76.95,17,0,6.89,IN,1710352047
290,acajutla,13.5928,-89.8275,87.01,60,72,11.32,SV,1710352047
291,shevchenko,48.5,35.0,40.68,46,100,15.95,UA,1710352047
292,carutapera,-1.195,-46.02,81.61,91,85,7.81,BR,1710352048
293,rabaul,-4.1967,152.1721,80.29,81,100,7.85,PG,1710352048
294,east moriches,40.8051,-72.7609,58.23,60,0,11.5,US,1710352048
295,saint-avertin,47.3636,0.7399,59.92,73,0,6.91,FR,1710352049
296,chicoana,-25.1009,-65.5331,91.06,54,65,3.0,AR,1710352049
297,ceeldheer,3.8488,47.1806,81.68,71,2,17.85,SO,1710352049
298,stanley,54.868,-1.6985,53.28,84,100,11.41,GB,1710352050
299,zabljak,43.1542,19.1232,32.81,96,92,3.47,ME,1710352050
300,vila velha,-20.3297,-40.2925,84.15,84,40,9.22,BR,1710352050
301,tahe,52.3333,124.7333,15.19,100,98,0.72,CN,1710352051
302,santa catarina juquila,16.2333,-97.3,66.9,29,1,7.16,MX,1710352051
303,gaigeturi,33.4644,126.3183,46.45,71,75,3.44,KR,1710352051
304,muynoq,43.7683,59.0214,33.78,55,8,5.44,UZ,1710352052
305,lorengau,-2.0226,147.2712,81.88,80,96,11.25,PG,1710352052
306,santa rosa jauregui,20.7333,-100.45,77.49,17,77,7.65,MX,1710352052
307,valuyki,50.2035,38.1067,33.58,69,100,13.11,RU,1710351765
308,santana,-0.0583,-51.1817,89.78,70,40,14.97,BR,1710352053
309,shingu,33.7333,135.9833,39.87,76,34,5.86,JP,1710352053
310,fort bragg,35.139,-79.006,76.64,26,0,4.61,US,1710351851
311,katabu,-4.9333,122.5167,76.42,93,100,7.85,ID,1710352055
312,licheng,23.2955,113.8284,64.94,82,99,3.29,CN,1710352055
313,mhamid,29.82,-5.72,79.41,12,99,12.59,MA,1710352055
314,linqu,36.5156,118.5397,49.39,49,100,6.8,CN,1710352055
315,puerto armuelles,8.2833,-82.8667,94.98,59,17,1.01,PA,1710351907
316,queenstown,-31.8976,26.8753,61.7,88,92,5.14,ZA,1710352056
317,kerikeri,-35.2268,173.9474,55.9,91,48,3.38,NZ,1710352056
318,villa juarez,24.6536,-107.5411,79.05,29,0,0.0,MX,1710352057
319,primero de mayo,-32.2552,-58.4228,107.17,23,0,15.5,AR,1710352057
320,guacimo,10.2104,-83.6807,86.09,55,42,6.55,CR,1710352057
321,ivdel',60.6911,60.4206,22.19,78,97,11.01,RU,1710352057
322,zhigalovo,54.8097,105.1578,22.73,86,99,12.57,RU,1710352058
323,richards bay,-28.783,32.0377,75.34,76,100,11.72,ZA,1710352058
324,mana,5.6592,-53.7767,86.95,62,45,12.73,GF,1710352058
325,vadso,70.0744,29.7487,23.16,58,75,6.91,NO,1710352059
326,port saint john's,-31.6229,29.5448,73.22,86,100,5.53,ZA,1710352059
327,humberto de campos,-2.5983,-43.4611,86.04,72,100,5.46,BR,1710352059
328,cabedelo,-6.9811,-34.8339,88.47,69,100,8.97,BR,1710351908
329,jalalabad,34.4265,70.4515,53.67,66,17,0.51,AF,1710352060
330,okha,53.5739,142.9478,0.07,98,95,5.64,RU,1710352060
331,awjilah,29.1081,21.2869,67.19,35,45,9.8,LY,1710352060
332,westport,41.1415,-73.3579,67.44,41,84,5.99,US,1710351907
333,naze,28.3667,129.4833,50.92,63,99,4.56,JP,1710352061
334,alice springs,-23.7,133.8833,71.15,43,9,5.75,AU,1710352050
335,yermentau,51.6214,73.1069,12.69,95,96,10.94,KZ,1710352061
336,iskateley,67.6803,53.1512,12.02,86,66,17.0,RU,1710352062
337,ola,59.5833,151.2833,10.17,96,97,5.23,RU,1710352062
338,bingerville,5.3584,-3.8869,85.14,79,20,12.66,CI,1710352062
339,arica,-18.475,-70.3042,83.75,53,0,16.11,CL,1710351962
340,malvan,16.0667,73.4667,77.14,74,2,11.32,IN,1710352063
341,egilsstadir,65.2653,-14.3948,33.71,93,100,24.16,IS,1710352063
342,ibiza,38.9088,1.433,61.21,69,0,3.44,ES,1710352064
343,great falls,47.5002,-111.3008,43.99,47,100,14.97,US,1710352064
344,san angelo,31.4638,-100.437,80.94,42,0,13.8,US,1710351802
345,kushtia,23.9011,89.1221,76.73,46,1,10.09,BD,1710352065
346,bikin,46.8161,134.26,14.67,100,98,2.95,RU,1710352065
347,maceio,-9.6658,-35.7353,83.64,83,75,4.61,BR,1710352055
348,chibougamau,49.9168,-74.3659,28.02,86,100,5.75,CA,1710352066
349,constantia,44.1833,28.65,47.08,89,100,7.27,RO,1710352066
350,chom thong,18.4174,98.6743,75.45,29,0,4.52,TH,1710352067
351,pangoa,-12.1167,-73.0,87.75,56,41,3.6,PE,1710352067
352,shangrao,28.4532,117.9686,55.87,90,100,2.73,CN,1710352067
353,lubango,-14.9172,13.4925,76.86,61,40,9.22,AO,1710352068
354,popondetta,-8.7537,148.2534,76.42,97,100,2.91,PG,1710352068
355,hirara,24.8,125.2833,59.27,77,100,2.3,JP,1710352068
356,berdigestyakh,62.0989,126.6992,-9.09,100,99,1.7,RU,1710352069
357,madalena,41.2162,-8.3345,62.71,73,17,3.56,PT,1710352069
358,jasdan,22.0333,71.2,73.67,42,0,12.91,IN,1710352069
359,nyurba,63.2842,118.3319,-19.08,100,100,1.48,RU,1710352069
360,al burayqah,30.4062,19.5739,61.32,63,3,14.67,LY,1710352070
361,posto fiscal rolim de moura,-13.0833,-62.2667,93.27,49,64,3.65,BR,1710351838
362,mahaddayweyne,2.9726,45.5347,82.22,74,14,19.93,SO,1710352071
363,harlingen,26.1906,-97.6961,86.09,76,20,20.71,US,1710351736
364,bor,56.3567,44.0669,33.73,89,85,8.05,RU,1710352072
365,sabzevar,36.2126,57.6819,50.77,42,2,2.8,IR,1710352072
366,kantunilkin,21.0917,-87.45,94.24,33,44,7.78,MX,1710352073
367,baymak,52.5933,58.3225,8.76,97,65,6.2,RU,1710352073
368,wuyishan,28.0047,117.8114,55.44,82,100,3.8,CN,1710352073
369,loango,-4.6719,11.8312,80.26,74,75,12.66,CG,1710352073
370,visakhapatnam,17.69,83.2093,84.09,79,20,5.75,IN,1710351853
371,iquitos,-3.7481,-73.2472,89.64,74,75,4.61,PE,1710352074
372,garden city,42.3256,-83.331,70.77,44,20,5.75,US,1710351969
373,santanyi,39.3546,3.1291,58.39,71,54,5.39,ES,1710352074
374,ballina,-28.8667,153.5667,65.79,70,97,4.18,AU,1710352075
375,cill airne,52.05,-9.5167,46.45,100,100,3.44,IE,1710352075
376,zhezqazghan,47.7833,67.7667,9.57,95,73,5.77,KZ,1710352075
377,kenai,60.5544,-151.2583,27.14,94,20,12.66,US,1710352076
378,red bluff,40.1785,-122.2358,55.85,47,0,14.97,US,1710352076
379,rufino,-34.2683,-62.7126,76.12,87,99,10.56,AR,1710352076
380,mossel bay,-34.1831,22.146,66.13,76,64,6.49,ZA,1710352077
381,karratha,-20.7377,116.8463,84.18,58,100,4.94,AU,1710352077
382,sorong,-0.8833,131.25,80.82,82,90,9.82,ID,1710352077
383,paradip garh,20.3167,86.6167,79.75,84,30,14.88,IN,1710352078
384,dhidhdhoo,6.8833,73.1,82.58,70,5,2.24,MV,1710352078
385,hit,33.6416,42.8251,65.64,23,36,7.23,IQ,1710352078
386,midvagur,62.0511,-7.1939,41.83,93,100,20.71,FO,1710352079
387,san vicente de canete,-13.0751,-76.3835,79.07,73,62,7.85,PE,1710352079
388,lichtenburg,-26.152,26.1597,73.83,31,92,5.82,ZA,1710352079
389,fort mcmurray,56.7268,-111.381,24.39,68,0,9.22,CA,1710351798
390,coahuayana de hidalgo,18.7,-103.6583,89.01,36,66,6.93,MX,1710352080
391,saint johnsbury,44.4192,-72.0151,50.95,42,100,1.01,US,1710352080
392,brisas de zicatela,15.8369,-97.0419,82.92,78,0,6.91,MX,1710352080
393,zaragoza,41.6561,-0.8773,67.48,37,0,9.22,ES,1710352034
394,veraval,20.9,70.3667,73.69,76,0,13.98,IN,1710352081
395,shubarshi,48.5872,57.1869,24.53,94,100,7.14,KZ,1710352081
396,mildura,-34.2,142.15,70.07,65,25,9.84,AU,1710352082
397,groningen,53.25,6.75,52.03,86,100,3.0,NL,1710352019
398,smederevo,44.6628,20.93,49.06,86,100,11.74,RS,1710352082
399,camayenne,9.535,-13.6878,87.89,66,40,13.8,GN,1710352082
400,djibouti,11.5,42.5,74.79,71,13,13.06,DJ,1710352083
401,vavuniya,8.7514,80.4971,69.73,89,44,3.31,LK,1710352083
402,swakopmund,-22.6833,14.5333,72.45,84,50,6.02,NA,1710352083
403,khandyga,62.6667,135.6,-2.04,99,99,0.45,RU,1710352084
404,yigo village,13.5361,144.8886,77.29,87,40,16.11,GU,1710352084
405,broken hill,-31.95,141.4333,77.22,39,91,10.74,AU,1710352049
406,soio,-6.1349,12.3689,83.39,87,86,11.59,AO,1710352085
407,saacow,1.6279,42.4407,85.95,58,62,15.03,SO,1710352085
408,tirebolu,41.0069,38.8139,57.04,59,100,5.53,TR,1710352086
409,am timan,11.0297,20.2827,96.17,11,97,5.82,TD,1710352086
410,menaka,15.9182,2.4022,99.79,14,87,3.44,ML,1710352087
411,cruzeiro do sul,-29.5128,-51.9853,97.52,51,0,5.86,BR,1710352087
412,maloye ganyushkino,46.6,49.2667,32.04,72,6,7.56,KZ,1710352087
413,ostrhauderfehn,53.1333,7.6167,52.18,92,100,9.95,DE,1710352088
414,iquique,-20.2208,-70.1431,75.24,68,60,6.64,CL,1710351838
415,vilyuysk,63.7553,121.6247,-15.0,100,99,1.99,RU,1710352088
416,don sak,9.3168,99.6918,78.78,79,41,9.35,TH,1710352089
417,grants,35.1473,-107.8514,44.83,53,100,17.27,US,1710352089
418,shache,38.4167,77.2406,50.22,28,86,19.04,CN,1710352089
419,agat village,13.3886,144.6585,78.91,87,0,8.05,GU,1710352090
420,laem sing,12.4816,102.0738,80.42,79,87,6.04,TH,1710352090
421,oban,56.4127,-5.4706,47.37,74,46,19.42,GB,1710352091
422,guia lopes da laguna,-21.4578,-56.1142,98.29,36,86,4.54,BR,1710352091
423,hammerfest,70.6634,23.6821,23.45,80,75,3.44,NO,1710352092
424,primorsk,46.7348,36.3443,41.92,58,100,26.26,UA,1710352092
425,nova zagora,42.4833,26.0167,52.07,68,100,4.05,BG,1710352092
426,pekanbaru,0.5333,101.45,79.12,94,40,1.14,ID,1710352093
427,flin flon,54.7682,-101.865,21.04,73,100,5.75,CA,1710351865
428,port augusta,-32.5,137.7667,83.71,36,99,5.5,AU,1710352093
429,gereida,11.2811,25.1414,90.95,20,62,4.63,SD,1710352094
430,rio brilhante,-21.8019,-54.5464,104.47,26,70,2.66,BR,1710352094
431,borgarnes,64.5383,-21.9206,42.85,78,54,10.16,IS,1710352094
432,laguna,38.421,-121.4238,57.15,69,0,13.8,US,1710352095
433,nhlangano,-27.1167,31.2,63.16,89,100,2.51,SZ,1710352095
434,wynyard,-41.0,145.7167,51.04,79,16,6.62,AU,1710352095
435,selkirk,50.1436,-96.8845,38.08,95,100,1.99,CA,1710351939
436,kapuskasing,49.4169,-82.4331,50.0,57,20,5.75,CA,1710352096
437,yanchep,-31.55,115.6833,73.53,78,0,11.5,AU,1710352097
438,polyarnyy,69.1989,33.4478,12.15,90,99,7.36,RU,1710352097
439,tangalle,6.024,80.7911,80.2,74,98,2.35,LK,1710352097
440,port lincoln,-34.7333,135.8667,65.16,87,100,18.63,AU,1710352098
441,kalifornsky,60.4183,-151.29,27.39,96,0,12.66,US,1710352098
442,nahiyat ash shinafiyah,31.5874,44.6602,69.01,16,12,8.08,IQ,1710352098
443,okondja,-0.6549,13.6753,74.23,90,87,0.92,GA,1710352099
444,villa gesell,-37.2639,-56.973,74.05,85,90,11.41,AR,1710352010
445,ceuta,35.8903,-5.3075,62.62,82,100,3.89,ES,1710352099
446,rodino,52.5,80.25,21.61,93,99,11.83,RU,1710352100
447,sault ste. marie,46.5168,-84.3333,54.16,61,0,11.5,CA,1710351837
448,kingston,17.997,-76.7936,90.55,55,20,18.41,JM,1710351983
449,evanston,42.0411,-87.6901,71.15,47,20,9.22,US,1710352101
450,katsuura,35.1333,140.3,46.29,63,89,10.49,JP,1710352101
451,akrehamn,59.2667,5.1833,46.99,87,100,20.71,NO,1710352102
452,ocean shores,46.9737,-124.1563,47.95,89,83,1.99,US,1710352102
453,masyaf,35.0653,36.3406,54.73,52,87,4.97,SY,1710352102
454,sao vicente,-23.9631,-46.3919,91.58,63,100,7.0,BR,1710352092
455,guerrero negro,27.9769,-114.0611,63.77,63,99,19.26,MX,1710351880
456,yangcun,39.3639,117.0603,51.78,28,0,5.12,CN,1710352103
457,kuqa,41.7278,82.9364,49.35,27,75,5.32,CN,1710352103
458,gilgit,35.9221,74.3087,40.77,93,100,0.11,PK,1710351853
459,thinadhoo,0.5333,72.9333,82.24,70,54,4.88,MV,1710352104
460,kencong,-8.2833,113.3667,77.23,90,99,4.56,ID,1710352105
461,victoria point,-27.5833,153.3,73.9,81,72,1.01,AU,1710352105
462,kalaleh,37.3807,55.4916,47.8,66,0,0.0,IR,1710352106
463,rokiskis,55.9667,25.5833,35.87,89,95,6.46,LT,1710352106
464,yuzhno-kurilsk,44.0306,145.8556,25.38,78,32,21.9,RU,1710352107
465,tortoli,39.9256,9.6572,58.82,72,20,10.36,IT,1710352107
466,jawad,24.6,74.85,69.58,32,0,6.38,IN,1710352107
467,nadi,-17.8,177.4167,78.8,94,75,6.91,FJ,1710351948
468,corner brook,48.9667,-57.9484,35.76,90,100,13.89,CA,1710351907
469,lahaina,20.8783,-156.6825,78.8,83,6,3.4,US,1710352108
470,obigarm,38.7173,69.7088,17.28,89,77,6.8,TJ,1710352108
471,turpan,42.9333,89.1667,56.39,31,65,7.74,CN,1710352109
472,mitu,1.1983,-70.1733,85.59,65,98,4.36,CO,1710352109
473,pathri,19.25,76.45,81.9,20,5,8.63,IN,1710352109
474,hami,42.8,93.45,48.47,22,0,1.43,CN,1710352110
475,moncton,46.1159,-64.8019,34.84,93,100,20.71,CA,1710352009
476,smithers,54.7804,-127.1743,32.32,93,75,2.3,CA,1710351913
477,bom jesus,-9.0744,-44.3586,99.81,26,34,5.73,BR,1710352111
478,vazante,-17.9869,-46.9078,87.13,58,8,4.09,BR,1710352111
479,courtenay,49.6866,-124.9936,46.11,62,75,3.44,CA,1710352111
480,nogliki,51.8333,143.1667,5.32,94,81,11.97,RU,1710352112
481,mostovskoy,44.4122,40.7936,47.35,63,100,4.38,RU,1710352112
482,longquan,24.6719,102.1613,52.57,43,0,3.83,CN,1710352112
483,daru,-9.0763,143.2092,79.12,90,100,10.87,PG,1710352112
484,tadine,-21.55,167.8833,78.06,89,92,15.21,NC,1710352113
485,anderson,34.5334,-82.6499,76.24,27,0,1.99,US,1710352113
486,guangming,45.3333,122.7833,34.93,59,55,8.23,CN,1710352113
487,igarka,67.4667,86.5833,3.78,95,100,18.95,RU,1710352114
488,balqash,46.8481,74.995,21.99,84,15,5.26,KZ,1710352114
489,sinjar,36.3209,41.8754,56.75,43,97,7.05,IQ,1710352114
490,qarauyl,48.9451,79.255,17.46,82,24,9.15,KZ,1710352115
491,ksar el kebir,35.0017,-5.9053,62.85,81,94,4.88,MA,1710352115
492,hutchinson,38.0608,-97.9298,64.72,77,75,11.5,US,1710352024
493,juneau,58.3019,-134.4197,35.6,92,100,20.71,US,1710352116
494,york,40.1254,-77.0,69.76,32,0,4.61,US,1710352082
495,koungheul,13.9833,-14.8,103.73,9,36,10.45,SN,1710352116
496,thief river falls,48.1191,-96.1812,43.75,87,0,9.22,US,1710352116
497,saint-philippe,-21.3585,55.7679,78.39,84,63,15.05,RE,1710352117
498,kabansk,52.0486,106.6528,27.43,91,90,8.48,RU,1710352117
499,vorkuta,67.5,64.0,5.88,90,95,16.42,RU,1710352117
500,okhotsk,59.3833,143.3,-9.04,97,43,8.01,RU,1710352117
501,lepsy,46.235,78.9456,31.1,96,84,3.96,KZ,1710352118
502,charters towers,-20.1,146.2667,72.57,76,14,5.84,AU,1710352118
503,redencao,-4.2258,-38.7306,86.05,72,91,6.38,BR,1710352118
504,revelstoke,50.9832,-118.2023,35.62,93,75,0.0,CA,1710352120
505,hobyo,5.3505,48.5268,82.29,69,2,13.98,SO,1710352120
506,konarka,19.9,86.1167,81.16,81,48,15.95,IN,1710352120
507,pyu,18.4833,96.4333,70.66,52,0,5.28,MM,1710352121
508,eyl,7.9803,49.8164,80.64,71,0,13.6,SO,1710352121
509,betio village,1.358,172.9211,82.44,84,100,18.66,KI,1710352121
510,takoradi,4.8845,-1.7554,84.06,78,100,10.87,GH,1710352122
511,arawa,-6.2132,155.5367,77.68,91,100,2.01,PG,1710352122
512,borogontsy,62.6683,131.1683,-20.02,100,100,2.17,RU,1710352122
513,lake havasu city,34.4839,-114.3224,69.22,32,0,8.01,US,1710352123
514,sisimiut,66.9395,-53.6735,21.36,89,22,7.14,GL,1710352123
515,bronderslev,57.2702,9.941,48.06,89,100,16.44,DK,1710352123
516,nema,57.5067,50.5011,29.05,95,100,9.75,RU,1710352123
517,rio grande,-32.035,-52.0986,86.11,68,98,8.21,BR,1710352057
518,opuwo,-18.0607,13.84,79.68,42,56,11.9,NA,1710352124
519,hadibu,12.65,54.0333,79.27,74,0,9.35,YE,1710352125
520,bardai,11.65,7.2333,93.45,14,98,7.92,NG,1710352125
521,masina,-4.3836,15.3914,88.09,62,20,6.91,CD,1710352125
522,kismayo,-0.3582,42.5454,83.71,75,29,12.3,SO,1710352126
523,preobrazheniye,42.9019,133.9064,29.59,70,58,6.06,RU,1710352126
524,sines,37.9562,-8.8698,62.29,75,16,1.99,PT,1710352126
525,quimili,-27.6333,-62.4167,107.67,26,12,16.35,AR,1710352127
526,ixtapa,20.7,-105.2,91.58,27,83,7.2,MX,1710352127
527,robore,-18.3333,-59.75,91.49,58,20,11.5,BO,1710352127
528,tefe,-3.3542,-64.7114,80.71,89,40,3.44,BR,1710352128
529,stanthorpe,-28.6667,151.95,59.41,97,8,6.42,AU,1710352128
530,lhasa,29.65,91.1,39.7,30,1,5.19,CN,1710352128
531,qarazhal,48.0078,70.7903,13.32,96,52,6.73,KZ,1710352128
532,san carlos de bariloche,-41.1456,-71.3082,55.15,54,40,31.07,AR,1710351919
533,halvad,23.0167,71.1833,72.88,57,0,13.65,IN,1710352129
534,saint-joseph,-21.3667,55.6167,77.38,81,49,14.27,RE,1710352129
535,santo amaro da imperatriz,-27.6881,-48.7786,91.65,100,2,6.17,BR,1710352130
536,ingeniero guillermo n. juarez,-23.9,-61.85,108.57,24,16,17.9,AR,1710352130
537,charleston,32.7766,-79.9309,78.82,33,0,10.36,US,1710351862
538,rawlins,41.7911,-107.2387,36.36,75,100,8.05,US,1710352078
539,kapa'a,22.0752,-159.319,71.58,92,20,4.61,US,1710352132
540,batticaloa,7.7102,81.6924,78.33,76,73,3.74,LK,1710352132
541,al kharj,24.155,47.3346,73.98,16,9,10.87,SA,1710352133
542,wenchang,30.904,118.4887,55.18,87,100,2.75,CN,1710352133
543,port victoria,0.0939,33.9756,77.4,66,44,12.03,KE,1710352133
544,goundam,16.4145,-3.6708,96.78,9,55,8.99,ML,1710352133
545,al qadarif,14.0349,35.3834,96.58,12,95,13.87,SD,1710352134
546,kruisfontein,-34.0033,24.7314,67.89,77,48,12.03,ZA,1710352134
547,toliara,-23.35,43.6667,82.11,84,46,2.46,MG,1710352134
548,kattivakkam,13.2167,80.3167,84.29,73,18,14.09,IN,1710352135
549,rundu,-17.9333,19.7667,81.55,31,72,2.86,NA,1710352135
550,rongelap,11.1635,166.8941,79.54,79,100,22.19,MH,1710352135
551,burnie,-41.0667,145.9167,60.46,81,9,6.2,AU,1710352136
552,chongwe,-15.3292,28.682,71.94,81,96,2.66,ZM,1710352136
553,upata,8.0086,-62.3989,92.19,31,34,8.21,VE,1710352136
554,al hudaydah,14.7978,42.9545,83.35,72,14,12.55,YE,1710352137
555,trindade,-16.6494,-49.4889,82.15,64,29,3.69,BR,1710352137
556,verkhnevilyuysk,63.4453,120.3167,-19.07,100,96,1.28,RU,1710352137
557,kayes,14.0,-11.0,103.39,8,59,10.8,ML,1710352138
558,aksu,41.1231,80.2644,50.25,27,100,2.77,CN,1710352138
559,qamdo,31.1667,97.2333,29.3,48,98,3.38,CN,1710352138
560,pointe michel,15.25,-61.3833,82.69,66,7,11.18,DM,1710352139
561,sillod,20.3,75.65,77.38,21,7,8.5,IN,1710352139
562,caconda,-13.7333,15.0667,64.44,88,100,6.96,AO,1710352139
563,pitimbu,-7.4706,-34.8086,88.39,68,98,9.84,BR,1710352140
564,tulun,54.5611,100.5792,20.14,85,94,11.32,RU,1710352140
565,griffith,41.5284,-87.4237,71.26,52,0,4.61,US,1710352140
566,kachug,53.9606,105.8817,26.06,80,100,17.0,RU,1710352141
